location_type,parent_station,stop_code,stop_desc,stop_id,stop_lat,stop_lon,stop_name,stop_timezone,stop_url,wheelchair_boarding,zone_id
0,,264201,,1,40.474412,17.969536,Cellino S. Marco - Via Napoli - Comune,,,,
0,,127301,,2,40.64439,17.98901,Brindisi - Viale E. Fermi - Himont - Direzione Brindisi,,,,
0,,202902,,3,40.728117,17.568863,Ostuni - Zona 167 - Incrocio Focolare - Direzione Cisternino,,,,
0,,118301,,4,40.549991,17.807685,Mesagne - Via Foggia - civico 62,,,,
0,,114902,,5,40.63412,17.97788,Brindisi - Viale E.Fermi - di fronte Mobil Plastic,,,,
0,,212601,,6,40.654554,17.604336,Ostuni - C.da Casamassima - Direzione S. Michele,,,,
0,,218401,,7,40.641837,17.592231,Ceglie M.ca - Contrada Natalicchio - SS 581 - Dir. S.Michele,,,,
0,,240801,,8,40.532841,17.578102,Francavilla F.na - Via Di Vagno n°54,,,,
0,,217303,,9,40.645217,17.508574,Ceglie M.ca - Via S.Lorenzo di fronte Chiesa,,,,
0,,209201,,10,40.716332,17.562018,Ostuni - C.da Assorbola - Direzione Martina,,,,
0,,264501,,11,40.475531,17.962165,Cellino S. Marco - Via Bari - di fr. n°20,,,,
0,,262101,,12,40.49652,18.002532,San Pietro V.co - Via Mare,,,,
0,,223501,,13,40.657598,17.718286,San Vito dei N.nni - Via Brindisi - Penny Market - Dir.Br,,,,
0,,720201,,14,40.631294,17.628676,San Michele S.no - Via A.Volta,,,,
0,,210802,,15,40.695176,17.462195,Ostuni - Ponte Ferroviario - Direzione Ostuni,,,,
0,,201901,,16,40.738212,17.471068,Casalini - Via Brindisi n°94 - Direzione Ostuni,,,,
0,,265205,,17,40.4457,17.925068,Sandonaci - Via Vecchia Campi n° 23,,,,
0,,209302,,18,40.716007,17.561824,Ostuni - C.da S. Lucia - Direzione Ostuni,,,,
0,,217402,,19,40.643245,17.512001,Ceglie M.ca - Via Matteotti n. 66 - Di fronte,,,,
0,,269601,,20,40.447308,17.735617,Erchie - Via Pr. Erchie/Torre n. 164 dir.Torre,,,,
0,,140201,,21,40.559535,17.795367,Mesagne - Via Marconi 186,,,,
0,,260501,,22,40.486632,18.048357,Torchiarolo - Via Brindisi N. 75,,,,
0,,118401,,23,40.550132,17.8116,Mesagne - Via Foggia - civico 14,,,,
0,,239401,,24,40.560737,17.490423,Villa Castelli - C.da Antoglia - Direzione Francavilla,,,,
0,,300401,,25,40.63144,17.943295,Brindisi - Via Bastioni San Giacomo1,,,,
0,,214902,,26,40.705161,17.345891,Martina Franca - Viale De Gasperi - Dir. Martina,,,,
0,,219401,,27,40.6332,17.634728,San Michele S.no - Via della Repubblica n°40,,,,
0,,103602,,28,40.627456,17.922276,Brindisi - Via Appia - Uff. Tec. Enel,,,,
0,,117701,,29,40.56031,17.8066,Mesagne - Villa Comunale - Direzione Brindisi,,,,
0,,224002,,30,40.656304,17.740597,SS16 S.Vito Br - Km 899 - Villa Lidia - Dir. SVi,,,,
0,,261001,,31,40.48273,18.003345,San Pietro V.co - Via Lecce n. 201 - Di Fronte,,,,
0,,214501,,32,40.833959,17.365671,Fasano - Istituto Alberghiero,,,,
0,,241902,,33,40.527604,17.581584,Francavilla F.na - Via S. Francesco n°110,,,,
0,,210401,,34,40.700878,17.491507,Ostuni - C.da Pozzo Colonna - Direzione Cisternino,,,,
0,,209002,,35,40.716466,17.61902,SS16 Car Ost -  Villa Lucia - Direzione Ostuni,,,,
0,,269212,,36,40.461072,17.743269,Torre S. Susanna - Via Tevere n°26,,,,
0,,10802,,37,40.545387,17.951789,Brindisi - Tuturano - Via Stazione -  Carab. - Dir. Tuturano,,,,
0,,202002,,38,40.737517,17.473745,Casalini - Via Brindisi n°140 - Direzione Cisternino,,,,
0,,211401,,39,40.704523,17.388502,Ostuni - Masseria il Gallo - Direzione Martina,,,,
0,,200201,,40,40.743251,17.425094,Cisternino - Via Roma 78,,,,
0,,206501,,41,40.726311,17.579406,Ostuni - Via Giovanni XXIII (di fr. Esso),,,,
0,,269401,,42,40.464867,17.732993,Torre S. Susanna - Via P. Togliatti n°5,,,,
0,,220401,,43,40.614297,17.637417,San Michele S.no - SP48 dir. Francavilla,,,,
0,,722201,,44,40.560232,17.715006,Latiano - Rondo' Cimitero,,,,
0,,218202,,45,40.641376,17.578656,SP581 - Cotrada Faddocchia  Dir. Ceglie,,,,
0,,200902,,46,40.75737,17.423768,Cisternino - S. P. 9 - Concessionaria Fiat - Dir. Cisternino,,,,
0,,201602,,47,40.741527,17.434396,SP17 - Via Ostuni - Cimitero - Dir. Cisternino,,,,
0,,14161,,48,40.559232,17.792092,Mesagne - Via Marconi ang. Via Gramsci,,,,
0,,208302,,49,40.72416,17.595684,SS16 Car Ost -  Villa Specchia - Direzione Ostuni,,,,
0,,203602,,50,40.842862,17.375832,Fasano - S. P. 4 - Villa Schiavone - Dir. Fasano,,,,
0,,241201,,51,40.52828,17.578239,Francavilla F.na - Via S. Francesco n°305,,,,
0,,242701,,52,40.532347,17.586977,Francavilla F.na - Via Baracca n°3,,,,
0,,203502,,53,40.839894,17.376655,Fasano - Ipermercato Conforama dir. Fasano,,,,
0,,220301,,54,40.617688,17.636431,San Michele S.no - Ctd Agnisdei - Direzione Francavilla,,,,
0,,222701,,55,40.65261,17.711546,San Vito dei N.nni - Via Mesagne n°158,,,,
0,,261901,,56,40.49591,17.994777,San Pietro V.co - Via Brindisi n°266,,,,
0,,243302,,57,40.53119,17.59897,Francavilla F.na - Via Abbadessa - Scuole Elementari,,,,
0,,211301,,58,40.701518,17.393741,Ostuni - Limite di Provincia - Direzione Martina,,,,
0,,276508,,59,40.552961,17.729841,Latiano - Via A.Moro n°8,,,,
0,,242201,,60,40.526403,17.592585,Francavilla F.na - Via De Reggio - Agip - Dir. Latiano,,,,
0,,239201,,61,40.581373,17.475846,Villa Castelli - Chiesa Nuova - Di fronte n. 18,,,,
0,,265601,,62,40.418012,17.833587,San Pancrazio S.no - Via Taranto n°17 - dir Centro,,,,
0,,214901,,63,40.704962,17.346002,Martina Franca - Viale De Gasperi - Dir. Ostuni,,,,
0,,220202,,64,40.622641,17.634828,San Michele S.no - Via Duca d'Aosta - n° 180,,,,
0,,269213,,65,40.460847,17.741616,Torre S. Susanna - Via Muscogiuri n°87,,,,
0,,117901,,66,40.557099,17.809868,Mesagne - Via D'Ocra - civico 18,,,,
0,,217502,,67,40.647633,17.51148,Ceglie M.ca - Via Petracca n°50,,,,
0,,218402,,68,40.641697,17.59028,SP581 - Contrada Natalicchio - - Dir. Ceglie,,,,
0,,217702,,69,40.649895,17.511041,Ceglie M.ca - Via Martina n°111,,,,
0,,205401,,70,40.723056,17.581943,Ostuni - Via Verona - Di fronte n. 11,,,,
0,,150001,,71,40.6331,17.941687,Brindisi - Via Indipendenza dir. Staz.,,,,
0,,275001,,72,40.481171,17.224044,Taranto - Via Porto Mercantile,,,,
0,,221901,,73,40.662017,17.699537,San Vito dei N.nni - Viale ONU,,,,
0,,205902,,74,40.722499,17.572778,Ostuni - Via degli Emigranti - n. 33,,,,
0,,221001,,75,40.65317,17.700814,San Vito dei N.nni - Via Francavilla - Capolinea,,,,
0,,117501,,76,40.563918,17.813182,Mesagne - Via Brindisi - Cimitero,,,,
0,,215101,,77,40.705972,17.653149,Carovigno - Via S. Sabina  - di Fronte al civ. 341,,,,
0,,221202,,78,40.653977,17.70234,San Vito dei N.nni - Largo S. Antonio n°69,,,,
0,,202201,,79,40.726445,17.500803,SP17 - C.da Minguccio - Direzione Ostuni,,,,
0,,117401,,80,40.58628,17.8506066,Cittadella della ricerca ( SS 7 ) - Cittadella della ricerca,,,,
0,,122001,,81,40.638669,17.927463,Brindisi - Via Prov. San Vito - Arsenale,,,,
0,,26231,,82,40.460528,17.384831,San Giorgio - Corso Europa,,,,
0,,223602,,83,40.657656,17.71885,SS16 S.Vito Br  - Penny Market Dir. SVi,,,,
0,,200801,,84,40.752284,17.425277,Cisternino - S. P. 9 - Dir. Caranna Edil SGS,,,,
0,,129702,,85,40.645005,17.932377,Brindisi - Via Ruggero de Simone Dir. Centro,,,,
0,,212501,,86,40.64632,17.608005,Ostuni - C.da Natalicchio - Direzione S. Michele,,,,
0,,265206,,87,40.445211,17.925096,Sandonaci - Via  Campi n° 74 dir.S.Pancr.,,,,
0,,209501,,88,40.707658,17.526478,Ostuni - C.da Lacertosa - Direzione Martina,,,,
0,,11101,,89,40.644401,17.925514,Brindisi - Via N. Brandi - Liceo Scientifico,,,,
0,,217304,,90,40.645217,17.508574,Ceglie M.ca - Via S.Lorenzo Chiesa,,,,
0,,208902,,91,40.719127,17.611012,SS16 Car Ost - Casa Rurale - Direzione Ostuni,,,,
0,,246201,,92,40.50249,17.646094,Oria - Via Latiano n°125,,,,
0,,267601,,93,40.43586,17.735327,Erchie - Via Principe di Napoli n°192,,,,
0,,273501,,94,40.521896,17.214281,Taranto - Portineria Imprese,,,,
0,,266301,,95,40.417831,17.831224,San Pancrazio S.no - Via Taranto n°75,,,,
0,,239102,,96,40.584555,17.475805,Villa Castelli - Via Ceglie - Ufficio Postale,,,,
0,,100601,,97,40.635698,17.940756,Brindisi -,,,,
0,,119001,,98,40.5597,17.797835,Mesagne - Via Marconi-civ. 150,,,,
0,,205301,,99,40.723233,17.579343,Ostuni - Via Nobile - Liceo Scientifico,,,,
0,,115801,,100,40.625622,17.97008,Brindisi - Via A.Nobel - civico 7,,,,
0,,219801,,101,40.630422,17.639456,San Michele S.no - Cimitero - Direzione S. Vito,,,,
0,,117601,,102,40.563319,17.812203,Mesagne - Via Brindisi 110 dir. Brindisi,,,,
0,,103302,,103,40.628747,17.926194,Brindisi - Viale S.G.Bosco - Scuola Don Milani,,,,
0,,273001,,104,40.487179,17.221666,Taranto - Via Machiavelli,,,,
0,,117502,,105,40.56414,17.813673,Mesagne - Via Brindisi - di fr. Cimitero,,,,
0,,117702,,106,40.560588,17.806711,Mesagne - Villa Comunale - Direzione Latiano,,,,
0,,11081,,107,40.64469,17.931112,Brindisi - Via N. Brandi - Ostello della Gioventù,,,,
0,,10801,,108,40.545446,17.951615,Brindisi - Tuturano - Via Stazione 122 - Carab.-Dir Brindisi,,,,
0,,11071,,109,40.631497,17.946127,Brindisi - Via Prov. per Lecce - civico 19,,,,
0,,220602,,110,40.61027,17.656767,San Michele S.no - Masseria Grattile - Direzione S. Michele,,,,
0,,274002,,111,40.649588,17.844555,Brindisi - Base Nato - Direzione S. Vito,,,,
0,,205402,,112,40.723331,17.583055,Ostuni - Via Verona - Supermercato C3,,,,
0,,114601,,113,40.63954,17.97882,Brindisi - Viale E.Fermi - Enel - Direzione Centro,,,,
0,,11111,,114,40.644506,17.922866,Brindisi - Via N. Brandi - civico 42 - Ang. Via Zanella,,,,
0,,269214,,115,40.460744,17.736443,Torre S. Susanna - Via Muscogiuri n°3,,,,
0,,212002,,116,40.696055,17.587128,Ostuni - C.da Lamacoppa Piccola - Direzione Ostuni,,,,
0,,212001,,117,40.663325,17.587053,Ostuni - C.da Lamacoppa Piccola - Direzione S. Michele,,,,
0,,246302,,118,40.504697,17.649651,Oria - Via Latiano n°214,,,,
0,,215602,,119,40.704445,17.663889,Carovigno - Via S. Sabina  - N. 65,,,,
0,,100901,,120,40.634146,17.940316,Brindisi - Via Bastioni Carlo V (Stazione),,,,
0,,114001,,121,40.631723,17.951648,Brindisi - Viale Arno-civico 30,,,,
0,,217102,,122,40.640553,17.5128,Ceglie M.ca - Viale A. Moro - Capolinea - n. 110,,,,
0,,246601,,123,40.549928,17.713552,Latiano - Via Cotrino - Tamoil - Di fr. civ. 5,,,,
0,,201502,,124,40.796165,17.446058,Cisternino - S. P. 9 - Incrocio SS 16 Direzione Speziale-Pez,,,,
0,,202901,,125,40.728222,17.569648,SP17 - Zona 167 - Incrocio Focolare - Direzione Ostuni,,,,
0,,212101,,126,40.676782,17.592646,Ostuni - C.da Madonna dei Fiori - Direzione S. Michele,,,,
0,,225102,,127,40.654511,17.76848,SS16 S.Vito Br - Rist.Otium - Dir. S.Vito,,,,
0,,114501,,128,40.63063,17.96518,Brindisi - Viale E.Fermi - Taf - Direzione Z.I.,,,,
0,,263901,,129,40.42079,17.847522,San Pancrazio S.no - Via Alfieri n°14,,,,
0,,215801,,130,40.711388,17.659166,Carovigno - Via Foggia - Fermata 1^ - N. 10 - Dir. S. Sabina,,,,
0,,113902,,131,40.62907,17.947887,Brindisi - Viale Arno - difronte al cimitero,,,,
0,,202202,,132,40.726525,17.499733,Ostuni - C.da Minguccio - Direzione Cisternino,,,,
0,,119901,,133,40.556793,17.810814,Mesagne - Via Dei Malvindi - civ.23,,,,
0,,243701,,134,40.532504,17.5897,Francavilla F.na - Via S. Lorenzo n°149,,,,
0,,215601,,135,40.704723,17.66361,Carovigno - Via S. Sabina  - di fr.N. 65,,,1,
0,,26241,,136,40.529274,17.442335,Grottaglie - Via Paparazio,,,,
0,,204102,,137,40.791523,17.460159,Speziale - Via Lecce n°95,,,,
0,,261502,,138,40.486186,17.99647,San Pietro V.co - Piazza Regina Margherita,,,,
0,,127101,,139,40.67229,17.9168,Brindisi - Agusta Westland,,,,
0,,202402,,140,40.724985,17.537328,Ostuni - C.da Riccio - Direzione Cisternino,,,,
0,,125301,,141,40.56031,17.8066,Mesagne - Via Manfredi Svevo 8,,,,
0,,220001,,142,40.629401,17.674636,San Michele S.no - Ctd Ajena - Direzione S. Vito,,,,
0,,103401,,143,40.624,17.926967,Brindisi - Viale Togliatti - CISL,,,,
0,,118701,,144,40.556356,17.804681,Mesagne - Via Arco Ferraro - civ. 90,,,,
0,,126701,,145,40.63726,17.95465,Brindisi - Punto Franco - Fiat Avio,,,,
0,,243901,,146,40.533476,17.586575,Francavilla F.na - Via S. Vito n°46,,,,
0,,267802,,147,40.457553,17.735945,Torre S. Susanna - Via Prov. per Erchie n°68 - dir Erchie,,,,
0,,264101,,148,40.476132,17.975451,Cellino S. Marco - Via Prov. S. Pietro - n°136 - dir. S. PT,,,,
0,,103301,,149,40.62862,17.926463,Brindisi - Viale S.G.Bosco 22,,,,
0,,246509,,150,40.556525,17.716634,Latiano - Rondò Via San Vito,,,,
0,,218102,,151,40.643273,17.573723,SP581 - Contrada Cappella  Dir. Ceglie,,,,
0,,203001,,152,40.83306,17.359569,Fasano - Viale della Resistenza - Villa Comunale,,,,
0,,269201,,153,40.469188,17.741715,Torre S. Susanna - Via Tagliamento n. 5,,,,
0,,204201,,154,40.778867,17.480626,Montalbano - Via Teano n°109,,,,
0,,202101,,155,40.730418,17.490739,SP17  C.da Sangalera - Direzione Ostuni,,,,
0,,210102,,156,40.708696,17.486369,Ostuni - C.da Chiobbica - Cappella - Direzione Ceglie,,,,
0,,274102,,157,40.664524,17.74019,Brindisi - Boschetto - Direzione S. Vito,,,,
0,,115001,,158,40.62873,17.98046,Brindisi - Via per Pandi - Alfer,,,,
0,,265501,,159,40.418504,17.839162,San Pancrazio S.no - Piazza Umberto I,,,,
0,,118901,,160,40.5599366,17.8004483,Mesagne - Via Marconi-Caserma dei Carabinieri,,,,
0,,750301,,161,40.741303,17.432376,Cisternino - Piazza Navigatori,,,,
0,,267102,,162,40.432279,17.735931,Erchie - Via Prov. Erchie Stazione di fr.n.5 dir S.Pan,,,,
0,,210002,,163,40.700975,17.492324,Ostuni - C.da Chiobbica - Fermata 1 - Direzione Ceglie,,,,
0,,216101,,164,40.70111,17.663055,Carovigno - Via San Vito - Di fr. Distr. Agip - Dir. S Vito ,,,1,
0,,211502,,165,40.705615,17.365706,Ostuni - S.P. 14 - Incrocio Cisternino- Direzione Ostuni,,,,
0,,202502,,166,40.724958,17.52801,Ostuni - C.da Lamie Brune - Direzione Cisternino,,,,
0,,273101,,167,40.494559,17.226194,Taranto - Piazza del Gesù,,,,
0,,269301,,168,40.469245,17.735624,Torre S. Susanna - Via P. Togliatti n°83,,,,
0,,135801,,169,40.54548,17.94832,Brindisi - Tuturano - Via G.Verdi n. 23,,,,
0,,118101,,170,40.552572,17.813873,Mesagne - Via S.Donaci - civ.112,,,,
0,,215201,,171,40.701116,17.663072,Carovigno - Corso Umberto 40 Distr.AGIP - Dir. S. Vito,,,,
0,,121802,,172,40.637691,17.932004,Brindisi - Via Prov. S. Vito - Passaggio a livello,,,,
0,,241001,,173,40.529336,17.577944,Francavilla F.na - Via Di Vagno n°168,,,,
0,,217401,,174,40.643305,17.511976,Ceglie M.ca - Via Matteotti n°66,,,,
0,,260801,,175,40.487784,18.000519,San Pietro V.co - Via P. Amedeo - Di fronte n. 52,,,,
0,,114201,,176,40.63096,17.957256,Brindisi - Viale E. Fermi - Lancia - Direzione Z.I.,,,,
0,,242401,,177,40.524086,17.592695,Francavilla F.na - Via Oria n°32 - Dir. Oria,,,,
0,,266902,,178,40.432374,17.73589,Erchie - Via Stazione n°1,,,,
0,,245501,,179,40.493462,17.652584,Oria - Via Torre S. Susanna,,,,
0,,202601,,180,40.724802,17.543778,SP17 C.da Vallegna - Direzione Ostuni,,,,
0,,261801,,181,40.490692,17.989868,San Pietro V.co - Via Mesagne n° 152,,,,
0,,203902,,182,40.813121,17.412273,Pezze di Greco - Corso Nazionale - n°120,,,,
0,,246101,,183,40.500697,17.643927,Oria - Via Latiano n°12,,,,
0,,219802,,184,40.630507,17.63941,SP581 - Cimitero - Direzione S. Michele,,,,
0,,210601,,185,40.691162,17.475871,Ostuni - Incrocio C.da Pascarosa - Direzione Martina,,,,
0,,218602,,186,40.642056,17.631911,San Michele S.no - Apruzzi Auto,,,,
0,,239101,,187,40.584555,17.475805,Villa Castelli - Via Ceglie - Ufficio Postale - N. 89,,,,
0,,203301,,188,40.833768,17.366146,Fasano - Via Roma 3 - Dir. Fasano,,,,
0,,218502,,189,40.646465,17.618941,SP581 - Contrada Palagogna - Direzione Ceglie,,,,
0,,215502,,190,40.708889,17.6625,Carovigno - Via S. Sabina 171,,,,
0,,260701,,191,40.489363,18.000358,San Pietro V.co - Piazzale Stazione,,,,
0,,265301,,192,40.451815,17.930357,Sandonaci - Via Cellino n°188,,,,
0,,220402,,193,40.614297,17.637417,San Michele S.no - SP48 - dir S.Michele,,,,
0,,219201,,194,40.630004,17.636729,San Michele S.no - Via Boito n°16,,,,
0,,269211,,195,40.463656,17.744741,Torre S. Susanna - Via Tevere n°1,,,,
0,,219001,,196,40.629083,17.630565,San Michele S.no - Via De Amicis - Villa Comunale,,,,
0,,204501,,197,40.780821,17.483855,Montalbano - Casa Cantoniera - Dir. Ostuni,,,,
0,,204702,,198,40.749587,17.553229,Ostuni - SS 16 - Deposito STP - Direzione Fasano,,,,
0,,202801,,199,40.728175,17.564218,SP17  incr. ITIS - Direzione Ostuni,,,,
0,,212202,,200,40.670277,17.597559,Ostuni - C.da Falghero - Direzione Ostuni,,,,
0,,114101,,201,40.632394,17.954966,Brindisi - Viale E. Fermi - Marchionna,,,,
0,,256506,,202,40.547063,17.72792,Latiano - Via Salento,,,,
0,,218701,,203,40.636713,17.632014,San Michele S.no - Via Tagliaferro,,,,
0,,202401,,204,40.724985,17.537328,SP17 C.da Riccio - Direzione Ostuni,,,,
0,,211402,,205,40.704523,17.388502,Ostuni - Masseria il Gallo - Direzione Ostuni,,,,
0,,203401,,206,40.835916,17.362734,Fasano - Via Garibaldi 69 - Dir. Stazione,,,,
0,,274202,,207,40.648019,17.869104,Brindisi - Battaglione S. Marco - Direzione S. Vito,,,,
0,,243601,,208,40.532372,17.591178,Francavilla F.na - Via S. Lorenzo n°187,,,,
0,,244701,,209,40.533235,17.583351,Francavilla F.na - Via B. Forleo n°1,,,,
0,,205901,,210,40.721942,17.574167,Ostuni - Via degli Emigranti n. 8,,,,
0,,201201,,211,40.768919,17.419469,Cisternino - Contrada Caranna - Largo Croce,,,,
0,,266401,,212,40.419001,17.842584,San Pancrazio S.no - Via Sandonaci n°78,,,,
0,,103501,,213,40.628743,17.924341,Brindisi - Via Appia - Clinica1,,,,
0,,210602,,214,40.691107,17.476006,Ostuni - Incrocio C.da Pascarosa - Direzione Ostuni,,,,
0,,220801,,215,40.637598,17.687561,SP48 -  S.Vito S.Mich - Mass Cardellicchio - Direzione S. V,,,,
0,,210302,,216,40.715193,17.47633,Ostuni - C.da Cavallerizza - Scuole - Direzione Ceglie,,,,
0,,208801,,217,40.716468,17.618732,Ostuni - C.da Polinisse - Direzione Carovigno,,,,
0,,115701,,218,40.621771,17.957497,Brindisi - Sede S.T.P.,,,,
0,,208502,,219,40.722133,17.601756,SS16 Car Ost -  Shabuya - Direzione Carovigno,,,,
0,,246802,,220,40.550115,17.713365,Latiano - Via Francavilla n° 108 - Dir. Francavilla-Oria,,,,
0,,118502,,221,40.5533666,17.8072966,Mesagne - Via Torre S.Susanna - difronte civ.197,,,,
0,,202501,,222,40.724958,17.52801,SP17 - C.da Lamie Brune - Direzione Ostuni,,,,
0,,265101,,223,40.447839,17.923098,Sandonaci - Largo Costantini n°4,,,,
0,,127401,,224,40.64272,17.9858,Brindisi - Viale E. Fermi - Dopolavoro - Direzione Brindisi,,,,
0,,242402,,225,40.524262,17.592786,Francavilla F.na - Via Oria n°87 - Dir. Francavilla,,,,
0,,268602,,226,40.463855,17.735055,Torre S. Susanna - Via Oria - Carabinieri,,,,
0,,118302,,227,40.5500733,17.8113116,Mesagne - Via Foggia - civico 19,,,,
0,,261101,,228,40.480064,18.005337,San Pietro V.co - Via Lecce - Ospedale Civile,,,,
0,,221401,,229,40.655339,17.709611,San Vito dei N.nni - Via XXV Luglio - Piazzetta,,,,
0,,211701,,230,40.706478,17.580213,Ostuni - C.da Molillo - Direzione S. Michele,,,,
0,,225201,,231,40.655936,17.746082,SS16 S.Vito Br - Cda Giannaricchiella - dir Brind.,,,,
0,,273201,,232,40.500371,17.20143,Taranto - Rondo' SS7 per Bari,,,,
0,,265401,,233,40.421176,17.84804,San Pancrazio S.no - Via Sandonaci n. 170 - Dir. Sandonaci,,,,
0,,200102,,234,40.744841,17.425133,Cisternino - Via Clarizia,,,,
0,,265202,,235,40.445579,17.916973,Sandonaci - Via S. Pancrazio n°128 - Direzione S. Pancrazio,,,,
0,,261201,,236,40.481121,18.001316,San Pietro V.co - Viale degli Studi - Istituto Commerciale,,,,
0,,203802,,237,40.815323,17.407382,Pezze di Greco - Corso Nazionale - n°10,,,,
0,,269101,,238,40.467206,17.741578,Torre S. Susanna - Via San Rocco n°48,,,,
0,,260502,,239,40.486395,18.048682,Torchiarolo - Via Brindisi n°54,,,,
0,,206602,,240,40.721384,17.577149,Ostuni - Via Giovanni XXIII - Distr. IP,,,,
0,,202602,,241,40.724802,17.543778,Ostuni - C.da Vallegna - Direzione Cisternino,,,,
0,,221301,,242,40.65352,17.707771,San Vito dei N.nni - Via San Donato - Chiesa di S. Francesco,,,,
0,,256509,,243,40.549718,17.710431,Latiano - Via Papa Giovanni XXIII,,,,
0,,281302,,244,40.644662,17.549385,SP581 -  S.Mich Cegl - C.da Casamassima - Dir. Ceglie,,,,
0,,241202,,245,40.528278,17.578634,Francavilla F.na - Via S. Francesco n°152,,,,
0,,274302,,246,40.645801,17.902635,Brindisi - Villa Gigante - Direzione S. Vito,,,,
0,,264301,,247,40.473699,17.970275,Cellino S. Marco - Via Amalfi n° 5,,,,
0,,127501,,248,40.564235,17.814904,Mesagne - Via Indipendenza n.25,,,,
0,,245901,,249,40.50037,17.644011,Oria - Piazza Lama n°30,,,,
0,,274201,,250,40.647971,17.866803,SS16 S.Vito Br -  Battaglione S. Marco - Direzione Brindisi,,,,
0,,260802,,251,40.487784,18.000519,San Pietro V.co - Via P. Amedeo - N. 52,,,,
0,,125001,,252,40.64365,17.99088,Brindisi - Enichem - Capolinea,,,,
0,,219902,,253,40.629731,17.660398,SP581 - Ctd Cuengo - Direzione San Michele,,,,
0,,218002,,254,40.643445,17.536908,SP581 - Contrada Petrelli  Dir. Ceglie,,,,
0,,118402,,255,40.549976,17.807361,Mesagne - Via Foggia - civico 45,,,,
0,,114401,,256,40.63453,17.97124,Brindisi - Viale E. Fermi - Progresso e Lavoro - Dir. Z.I.,,,,
0,,243801,,257,40.53261,17.587378,Francavilla F.na - Via S. Lorenzo n°85,,,,
0,,268801,,258,40.448145,17.923879,Sandonaci - Largo Costantini n°9,,,,
0,,217802,,259,40.644857,17.520942,Ceglie M.ca - Via Francavilla,,,,
0,,114901,,260,40.63391,17.97786,Brindisi - Via per Pandi - Mobil Plastic,,,,
0,,114602,,261,40.63965,17.97902,Brindisi - Viale E. Fermi - Enel - Direzione Z.I.,,,,
0,,241101,,262,40.529185,17.576649,Francavilla F.na - Via Settembrini n°1,,,,
0,,217801,,263,40.644491,17.521199,Ceglie M.ca - Via Francavilla - Di Fronte al n. 26,,,,
0,,220201,,264,40.623429,17.634699,San Michele S.no - Via Duca d'Aosta - n°201,,,,
0,,268601,,265,40.463855,17.735055,Torre S. Susanna - Via Oria - Carabinieri - Di fronte,,,,
0,,127302,,266,40.64413,17.98865,Brindisi - Viale E. Fermi - Himont - Direzione Z.I.,,,,
0,,219301,,267,40.630608,17.634897,San Michele S.no - Via Leopardi n°6,,,,
0,,205102,,268,40.728054,17.573333,Ostuni - Via Rodio - Dist. Fina,,,,
0,,267301,,269,40.436328,17.734272,Erchie - Via Roma - Comune ,,,,
0,,211801,,270,40.697379,17.585889,Ostuni - Ristorante Il Silenzio - Direzione S. Michele,,,,
0,,118501,,271,40.5533666,17.8072966,Mesagne - Via Torre S.Susanna - civ.197 (Chiesa),,,,
0,,101601,,272,40.627868,17.935545,Brindisi - Viale A.Moro - Magistrale,,,,
0,,260902,,273,40.484976,18.001539,San Pietro V.co - Via Lecce N. 136 - Distr. Agip,,,,
0,,216301,,274,40.679386,17.685109,Carovigno - Carbrun - Direzione S. Vito,,,,
0,,206601,,275,40.721344,17.576957,Ostuni - Via Giovanni XXIII (di fr. IP),,,,
0,,223701,,276,40.657129,17.725854,SS16 S.Vito Br - Ctd San Gioacchino - Dir. Brindisi,,,,
0,,261601,,277,40.48509,17.990679,San Pietro V.co - Via Cellino n° 150,,,,
0,,128901,,278,40.637882,17.93858,Brindisi - Via C. Colombo 130,,,,
0,,101902,,279,40.626012,17.929007,Brindisi - Via Cattaneo - Direzione Centro,,,,
0,,720301,,280,40.630964,17.627856,San Michele S.no - Via Italia,,,,
0,,101602,,281,40.627718,17.934619,Brindisi - Viale A.Moro di Fr. Magistrale,,,,
0,,261002,,282,40.48273,18.003345,San Pietro V.co - Via Lecce n° 201,,,,
0,,101501,,283,40.629801,17.938807,Brindisi - Viale A. Moro - Cavalcavia De Gasperi,,,,
0,,242002,,284,40.525924,17.588454,Francavilla F.na - Via S. Francesco - Villetta,,,,
0,,260302,,285,40.482296,18.050314,Torchiarolo - Via Leopardi - Inc. Via Kennedy - Di Fronte,,,,
0,,246202,,286,40.502501,17.645871,Oria - Via Latiano n°110,,,,
0,,246504,,287,40.547569,17.718614,Latiano - Via L.Einaudi n°38,,,,
0,,114702,,288,40.63665,17.97455,Brindisi - Viale E. Fermi - Rondò - Dir. Z.I. - di fr. Palma,,,,
0,,212401,,289,40.658418,17.601128,Ostuni - C.da Musone - Direzione S. Michele,,,,
0,,209701,,290,40.704688,17.502222,Ostuni - C.da Cervarolo - Fermata 1 - Direzione Martina,,,,
0,,216201,,291,40.681471,17.683009,Carovigno - C.da Fornace - Direzione S. Vito,,,,
0,,261301,,292,40.4837,18.001039,San Pietro V.co - Via S. Antonio 103,,,,
0,,210301,,293,40.715193,17.47633,Ostuni - C.da Cavallerizza - Scuole - Direzione Cisternino,,,,
0,,106602,,294,40.64545,17.936128,Brindisi - Casale - Via Ruta - Via Amalfi2,,,,
0,,211002,,295,40.695769,17.445271,Ostuni - C.da Geremia - Direzione Ostuni,,,,
0,,256508,,296,40.549324,17.711446,Latiano - Via Cotrino n°36,,,,
0,,208202,,297,40.724933,17.587392,SS16 Car Ost -  Ex Istituto Salesiani - Di fronte,,,,
0,,216401,,298,40.675662,17.688841,Carovigno - C.da Matteo Pati - Direzione S. Vito,,,,
0,,212102,,299,40.676969,17.592635,Ostuni - C.da Madonna dei Fiori - Direzione Ostuni,,,,
0,,118902,,300,40.5599366,17.8004483,Mesagne - Via Marconi civ. 147 (di fr. Carab.),,,,
0,,101701,,301,40.626739,17.932664,Brindisi - Viale A.Moro - Di Fr. Hotel Mediterraneo,,,,
0,,114402,,302,40.63474,17.97136,Brindisi - Viale E.Fermi - Progresso e Lavoro - Direzione Br,,,,
0,,222102,,303,40.65994,17.704909,San Vito dei N.nni - Via Carovigno - Dist. IP - Dir. Carovig,,,,
0,,265203,,304,40.444686,17.921149,Sandonaci - Via  Foscolo incrocio Cimitero dir.Cellino,,,,
0,,221101,,305,40.652979,17.701112,San Vito dei N.nni - Via Francavilla n. 20,,,,
0,,264402,,306,40.475755,17.965493,Cellino S. Marco - Via Genova - n°57,,,,
0,,103801,,307,40.625475,17.916341,Brindisi - Ospedale Perrino,,,,
0,,209102,,308,40.71766,17.56257,Ostuni - C.da Camera - Direzione Ostuni,,,,
0,,274001,,309,40.649621,17.844438,SS16 S.Vito Br - Base Nato - Direzione Brindisi,,,,
0,,242601,,310,40.5295,17.586497,Francavilla F.na - Via Baracca n°53,,,,
0,,114502,,311,40.63016,17.96422,Brindisi - Viale E.Fermi - Taf - Direzione Brindisi,,,,
0,,115302,,312,40.6316,17.97503,Brindisi - Via Macaluso Direzione Sede,,,,
0,,264102,,313,40.477458,17.97803,Cellino S. Marco - Via Prov. S. Pietro - n°103 - Dir. Sand,,,,
0,,224102,,314,40.654811,17.76372,SS16 S.Vito Br - Chiesa S. Antonio - Dir. S. Vit,,,,
0,,217305,,315,40.640577,17.512793,Ceglie M.ca - Via Montevicoli,,,,
0,,224301,,316,40.65285,17.792764,SS16 S.Vito Br - Distr. Pennetta - Dir. Brindisi,,,,
0,,118201,,317,40.551704,17.814561,Mesagne - Via Antonucci - Scuole El.Falcone,,,,
0,,115103,,318,40.623295,18.001688,Brindisi - Ittica Sud,,,,
0,,260901,,319,40.484976,18.001539,San Pietro V.co - Via Lecce n°136,,,,
0,,245602,,320,40.493576,17.652781,Oria - Via Torre S. Susanna 239,,,,
0,,204001,,321,40.811867,17.41493,Pezze di Greco - Corso Nazionale - n°255,,,,
0,,10682,,322,40.641386,17.928477,Brindisi - Via Ciciriello - Direzione Casale,,,,
0,,264801,,323,40.47127,17.964964,Cellino S. Marco - Piazza Mercato,,,,
0,,246501,,324,40.550163,17.714294,Latiano - S. P. 71 - Santuario Cotrino - Dir. Latiano,,,,
0,,256511,,325,40.555279,17.71121,Latiano - Via Martin Luter King n°179,,,,
0,,225202,,326,40.656606,17.734581,SS16 S.Vito Br - Cda Giannaricchiella dir. San Vito,,,,
0,,266905,,327,40.439325,17.736853,Erchie - Via Savoia (scuole element.),,,,
0,,204701,,328,40.748925,17.554472,Ostuni - SS 16 - Deposito STP - Direzione Ostuni,,,,
0,,209801,,329,40.705648,17.505446,Ostuni - C.da Cervarolo - Fermata 2 - Direzione Martina,,,,
0,,201302,,330,40.772182,17.446157,Cisternino - S. P. 9 - Contrada Monte Pizzuto - dir. Cistern,,,,
0,,220502,,331,40.608102,17.646881,San Michele S.no - Masseria S. Giacomo - Direzione S. Michel,,,,
0,,300701,,332,40.561098,18.009946,Brindisi - Centrale Enel,,,,
0,,275502,,333,40.64813,17.86664,Brindisi - Statale 16 - Brancasi - Dir. S. Vito,,,,
0,,211101,,334,40.696376,17.41756,Ostuni - C.da Galante - Direzione Martina,,,,
0,,210502,,335,40.696189,17.482887,Ostuni - SP14 - Incrocio Villaggio degli Ulivi - Dir. Ostuni,,,,
0,,208201,,336,40.724933,17.587392,Ostuni - SS 16 - Ex Istituto Salesiani -,,,,
0,,246402,,337,40.508871,17.658233,Oria - S. P. 71 Oria - Latiano - Direzione Oria,,,,
0,,220501,,338,40.607817,17.647267,San Michele S.no - Masseria S. Giacomo - Direzione Francav,,,,
0,,118001,,339,40.555201,17.811089,Mesagne - Via S.Donaci - civ.46 (Ospedale),,,,
0,,211702,,340,40.706532,17.580233,Ostuni - C.da Molillo - Direzione Ostuni,,,,
0,,246902,,341,40.55168,17.717587,Latiano - Piazza Bartolo Longo n°46 - Dir. Francavilla-Oria,,,,
0,,264602,,342,40.469545,17.960729,Cellino S. Marco - Via Ginosa di fr. n°9,,,,
0,,265702,,343,40.422815,17.840921,San Pancrazio S.no - Via Mesagne 139 - Dir. S. Pancrazio,,,,
0,,265602,,344,40.418112,17.832524,San Pancrazio S.no - Via Taranto n°32 - dir. Erchie,,,,
0,,217201,,345,40.643446,17.513678,Ceglie M.ca - Via Crispi n°65,,,,
0,,210001,,346,40.700975,17.492324,Ostuni - C.da Chiobbica - Direzione Martina F.,,,,
0,,26221,,347,40.49482,17.990885,San Pietro V.co - Circonv.ang. via De Gasperi dir.Cellino,,,,
0,,208602,,348,40.722256,17.601497,SS16 Car Ost -  C.da S. Caterina - Direzione Ostuni,,,,
0,,751601,,349,40.465196,17.744673,Torre S. Susanna - Via Papa Giovanni XXIII N.15,,,,
0,,220701,,350,40.64461,17.648531,SP581 -  S.Mich Ceg - Parco Monsignore  - Direzione S. Vito,,,,
0,,209901,,351,40.704827,17.362995,Ostuni - S.P. 14 - Incrocio Cisternino-Ceglie - Dir. Martina,,,,
0,,245601,,352,40.493839,17.651659,Oria - Via Torre S. Susanna 230,,,,
0,,281301,,353,40.640958,17.584848,SP581 -  S.Mich Cegl - C.da Casamassima - Dir.S.Michele,,,,
0,,201501,,354,40.796744,17.446268,Cisternino - S. P. 9 - Incrocio SS 16 - Dir. Cisternino ,,,,
0,,202102,,355,40.730752,17.490451,Ostuni - C.da Sangalera- Direzione Cisternino,,,,
0,,127901,,356,40.56184,17.802921,Mesagne - Via Carmine,,,,
0,,210101,,357,40.708542,17.487078,Ostuni - C.da Chiobbica - Cappella - Direzione Cisternino,,,,
0,,100701,,358,40.636435,17.939353,Brindisi - Via C. Colombo - Porta Mesagne,,,,
0,,205001,,359,40.727525,17.570731,Ostuni - Largo Falcone,,,,
0,,205101,,360,40.728054,17.573055,Ostuni - Via Rodio - S. Media Barnaba,,,,
0,,103101,,361,40.625808,17.928514,Brindisi - Viale S.G.Bosco - Sc.Media M.Pacuvio,,,,
0,,269701,,362,40.455084,17.735935,Torre S. Susanna - Via Prov. per Erchie n°119 dir. Torre,,,,
0,,202302,,363,40.726914,17.515694,Ostuni - C.da Badessa - Direzione Cisternino,,,,
0,,247201,,364,40.552565,17.72022,Latiano - S. P. 45 Latiano-Mesagne - n°40 - Dir. Mesagne,,,,
0,,115401,,365,40.63384,17.97314,Brindisi - Via Corbino - M.C.T.C.,,,,
0,,264401,,366,40.475755,17.965493,Cellino S. Marco - Via Genova - di fr. n°57,,,,
0,,269801,,367,40.462316,17.736152,Torre S. Susanna - Via Prov. per Erchie n°80,,,,
0,,217501,,368,40.647428,17.510862,Ceglie M.ca - Via Petracca n°35,,,,
0,,240901,,369,40.532738,17.575444,Francavilla F.na - Via Renato Imperiali n°103,,,,
0,,118002,,370,40.5555383,17.8106683,Mesagne - Via S.Donaci - civ.37,,,,
0,,205201,,371,40.722778,17.578611,Ostuni - Viale dello Sport,,,,
0,,211602,,372,40.704867,17.363366,Ostuni - S.P. 14 - Incrocio per Ceglie - Direzione Ostuni,,,,
0,,106601,,373,40.645509,17.936944,Brindisi - Casale - Via Ruta - Via Amalfi1,,,,
0,,223802,,374,40.65668,17.734629,SS16 S.Vito Br - Ctd Lamaferrara - Dir. S. Vito,,,,
0,,203701,,375,40.851967,17.385913,Fasano - Stazione FF.SS.,,,,
0,,119701,,376,40.557355,17.809362,Mesagne - Via Melissa Bassi - civ. 14,,,,
0,,266802,,377,40.427656,17.73745,Erchie - Via Stazione n°91 dir Erchie,,,,
0,,265402,,378,40.421028,17.848053,San Pancrazio S.no - Via Sandonaci 137 - Dir. S. Pancrazio,,,,
0,,212201,,379,40.670277,17.597559,Ostuni - C.da Falghero - Direzione S. Michele,,,,
0,,245401,,380,40.496515,17.643827,Oria - Piazza Lorch n°32,,,,
0,,239402,,381,40.560737,17.490423,Villa Castelli - C.da Antoglia - Direzione Villa Castelli,,,,
0,,223801,,382,40.656596,17.734567,SS16 S.Vito Br - Ctd Lamaferrara - Dir. Brindisi,,,,
0,,264601,,383,40.469545,17.960729,Cellino S. Marco - Via Ginosa n°9,,,,
0,,206301,,384,40.726943,17.577228,Ostuni - Piazza Italia - Di fronte Pessina,,,,
0,,200701,,385,40.745746,17.430692,Cisternino - Circonvallazione incrocio Monti,,,,
0,,201001,,386,40.76264,17.422968,Cisternino - S. P. 9 - incrocio Caranna - dir. SS16,,,,
0,,223901,,387,40.6562,17.740701,SS16 S.Vito Br - Resort dei N.nni - Dir. Brindisi,,,,
0,,211202,,388,40.699572,17.404274,Ostuni - C.da Ferri - Direzione Ostuni,,,,
0,,242501,,389,40.52707,17.588301,Francavilla F.na - Via Cap. di Castri - n°77,,,,
0,,211802,,390,40.697511,17.585896,Ostuni - Ristorante Il Silenzio - Direzione Ostuni,,,,
0,,274203,,391,40.648019,17.869104,Brindisi - Battaglione S. Marco - Ferm. Esterna,,,,
0,,212502,,392,40.646587,17.607562,Ostuni - C.da Natalicchio - Direzione Ostuni,,,,
0,,264901,,393,40.445991,17.924167,Sandonaci - Via A. Diaz n° 62,,,,
0,,101702,,394,40.626827,17.932671,Brindisi - Viale A.Moro -Hotel Mediterraneo,,,,
0,,10681,,395,40.641376,17.928527,Brindisi - Via Ciciriello - Circolo Tennis,,,,
0,,209101,,396,40.717663,17.562494,Ostuni - C.da Camera - Direzione Martina,,,,
0,,105602,,397,40.645034,17.933449,Brindisi - Via Brin - Distributore Collegio Navale,,,,
0,,208901,,398,40.719061,17.610889,Ostuni - Casa Rurale - Direzione Carovigno,,,,
0,,210202,,399,40.717008,17.471657,Ostuni - C.da Cavallerizza  - Direzione Ceglie,,,,
0,,209502,,400,40.707515,17.526295,Ostuni - C.da Lacertosa - Direzione Ostuni,,,,
0,,215301,,401,40.702499,17.661388,Carovigno - Corso Umberto di fr. Standa - Dir. S. Vito,,,,
0,,100801,,402,40.637183,17.938453,Brindisi - Via De' Carpentieri,,,,
0,,119402,,403,40.56335,17.797607,Mesagne - Via Vignola - Fermata 1^ - difronte civ.3,,,,
0,,140202,,404,40.559534,17.795721,Mesagne - Via Marconi 209,,,,
0,,242301,,405,40.529121,17.606107,Francavilla F.na - Via Latiano - Direzione Latiano,,,,
0,,222801,,406,40.658018,17.711383,San Vito dei N.nni - Via Brindisi - Giornalaio,,,,
0,,210901,,407,40.696173,17.451444,Ostuni - C.da Grotte di Figazzano - Direzione Martina,,,,
0,,204801,,408,40.732504,17.569135,Ostuni - SS 16 - N. 249 - Direzione Ostuni,,,,
0,,215701,,409,40.710512,17.657497,Carovigno - Via S. Sabina n°278 -  dir. Ostuni,,,,
0,,204101,,410,40.791399,17.460337,Speziale - Via Lecce,,,,
0,,218001,,411,40.643331,17.536997,Ceglie M.ca - Contrada Petrelli - SS 581 - Dir. S. Michele,,,,
0,,219701,,412,40.630478,17.635271,San Michele S.no - Via Vittorio Veneto n. 86,,,,
0,,247101,,413,40.55314,17.724434,Latiano - Via della Libertà n°46 - Dir. Mesagne,,,,
0,,201401,,414,40.788353,17.451212,Cisternino - S. P. 9 - Incrocio Speziale - dir. SS16,,,,
0,,11082,,415,40.644477,17.931516,Brindisi - Via N. Brandi - Ist. Prof. per il Commercio,,,,
0,,204401,,416,40.782496,17.477332,Montalbano - Via XXIV Maggio n°30,,,,
0,,208501,,417,40.720857,17.605875,Ostuni - Shabuya - Direzione Ostuni,,,,
0,,211201,,418,40.699897,17.403845,Ostuni - C.da Ferri - Direzione Martina,,,,
0,,211902,,419,40.696055,17.587096,Ostuni - C.da Picoco - Direzione Ostuni,,,,
0,,215102,,420,40.706112,17.653055,Carovigno - Via S. Sabina - 341,,,,
0,,260202,,421,40.480532,18.052045,Torchiarolo - Via Leopardi - Di fronte Incrocio Via Isonzo,,,,
0,,211302,,422,40.701471,17.393679,Ostuni - Limite di Provincia - Direzione Ostuni,,,,
0,,273701,,423,40.503979,17.198119,Taranto - Portineria ISE,,,,
0,,103002,,424,40.627457,17.9252,Brindisi - Piazza Curtatone - Direzione S. Chiara,,,,
0,,201902,,425,40.738212,17.471068,Casalini - Via Brindisi n°94 - Direzione Cisternino,,,,
0,,218101,,426,40.643493,17.573422,Ceglie M.ca - Contrada Cappella - SS 581 - Dir. S. Michele,,,,
0,,217601,,427,40.64792,17.511841,Ceglie M.ca - Via Petracca n°13,,,,
0,,260201,,428,40.480532,18.052045,Torchiarolo - Via Leopardi - Incrocio Via isonzo,,,,
0,,115002,,429,40.62897,17.98052,Brindisi - Viale E. Fermi - di fronte Alfer,,,,
0,,125002,,430,40.63021,17.975,Brindisi - Salver,,,,
0,,245104,,431,40.49322,17.65222,Oria - Viale Grande Europa,,,,
0,,200802,,432,40.752243,17.425121,Cisternino - S. P. 9 - Dir. Cisternino Edil SGS,,,,
0,,261702,,433,40.487525,17.995,San Pietro V.co - Via Mesagne 1,,,,
0,,10103,,434,40.625803,17.961193,Brindisi - Break24,,,,
0,,224502,,435,40.651943,17.818056,SS16 S.Vito Br - Casa Cantoniera - Dir. S. Vito,,,,
0,,223702,,436,40.657164,17.726869,SS16 S.Vito Br - Ctd San Gioacchino - Dir. S. Vito,,,,
0,,205801,,437,40.721942,17.576665,Ostuni - Via D. Cerignola - di fronte n.20,,,,
0,,260601,,438,40.487897,18.00451,San Pietro V.co - Via Torchiarolo  - Dir. Torch,,,,
0,,203901,,439,40.813016,17.412211,Pezze di Greco - Corso Nazionale - n°125,,,,
0,,204601,,440,40.773524,17.499785,Montalbano - Contrada Fontevecchia - Direzione Ostuni,,,,
0,,266904,,441,40.432929,17.738324,Erchie - Via Michelangelo,,,,
0,,222301,,442,40.658358,17.705942,San Vito dei N.nni - Via Annunziata n°7,,,,
0,,115601,,443,40.625,17.968282,Brindisi - Via Ferraris - Doriano,,,,
0,,117602,,444,40.563339,17.811944,Mesagne - Via Brindisi 111 dir. Mesagne,,,,
0,,275501,,445,40.64811,17.86716,SS16 S.Vito Br - Brancasi - Dir. Brindisi,,,,
0,,203501,,446,40.839894,17.376655,Fasano - Ipermercato Conforama dir. Savelletri,,,,
0,,113901,,447,40.628869,17.948114,Brindisi - Viale Arno - Cimitero,,,,
0,,264002,,448,40.473036,17.960017,Cellino S. Marco - Via Mascagni - dir. Sandonaci,,,,
0,,115202,,449,40.63239,17.97766,Brindisi - Via Macaluso - Direzione Sede,,,,
0,,202701,,450,40.726767,17.55455,SP17 - C.da Campanile - Direzione Ostuni,,,,
0,,222001,,451,40.664322,17.700342,San Vito dei N.nni - S. S. 16 - Inc Viale ONU - Dir. S.Vito,,,,
0,,260401,,452,40.484364,18.048129,Torchiarolo - Via Leopardi - Incrocio Via Caneva,,,,
0,,211601,,453,40.704851,17.363176,Ostuni - S.P. 14 - Incrocio per Ceglie - Direzione Martina,,,,
0,,273801,,454,40.511547,17.22153,Taranto - Portineria Belleli,,,,
0,,239502,,455,40.558332,17.500936,Villa Castelli - C.da Tagliavanti - Direzione Villa Castelli,,,,
0,,140101,,456,40.5585033,17.807965,Mesagne - Via Manfredi Svevo (Tabaccaio),,,,
0,,246401,,457,40.50887,17.658233,Oria - S. P. 71 Oria - Latiano - Direzione Latiano,,,,
0,,300101,,458,40.62577,17.924339,Brindisi - Viale Porta Pia,,,,
0,,267401,,459,40.440915,17.734917,Erchie - Via Gorizia,,,,
0,,202802,,460,40.728242,17.564305,Ostuni - incr. ITIS - Direzione Cisternino,,,,
0,,118601,,461,40.555687,17.807536,Mesagne - Via Arco Ferraro - civ. 18,,,,
0,,216202,,462,40.681515,17.683117,SS16 S.Vito Car - C.da Fornace - Direzione Carovigno,,,,
0,,216402,,463,40.68222,17.682501,SS16  C.da Matteo Pati - Direzione Carovigno ( Stura),,,1,
0,,224302,,464,40.653025,17.791481,SS16 S.Vito Br - Distr. Pennetta - Dir. S. Vito,,,,
0,,101502,,465,40.630027,17.938728,Brindisi - Viale A. Moro - Scuola Media Marzabotto,,,,
0,,261401,,466,40.481728,17.998956,San Pietro V.co - Via Rizzo n°116,,,,
0,,222002,,467,40.664322,17.700342,San Vito dei N.nni - S. S. 16 - Inc. Viale ONU - Dir. Carovi,,,,
0,,217901,,468,40.644188,17.517729,Ceglie M.ca - Ospedale Neurolesi e Motolesi,,,,
0,,121801,,469,40.637439,17.93155,Brindisi - Via Prov. S. Vito - Civ. 86,,,,
0,,260101,,470,40.480546,18.05522,Torchiarolo - Via C. Colombo - Capolinea-Villetta Padre Pio,,,,
0,,242202,,471,40.526403,17.592585,Francavilla F.na - Via De Reggio - n. 69 - Dir. Francavilla,,,,
0,,209702,,472,40.704688,17.502222,Ostuni - C.da Cervarolo - Fermata 1 - Direzione Ostuni,,,,
0,,135001,,473,40.625499,17.927143,Brindisi - Via Bezzecca,,,,
0,,201402,,474,40.787858,17.45078,Cisternino - S. P. 9 - Incrocio Speziale - Dir. Cisternino,,,,
0,,11061,,475,40.628088,17.947165,Brindisi - Via Prov. per Lecce - Cimitero,,,,
0,,222601,,476,40.65644,17.707559,San Vito dei N.nni - Via Mesagne - Chiesa Madre,,,,
0,,215202,,477,40.704723,17.654444,Carovigno - Corso Umberto 47 distr. AGIP direz Ostuni,,,1,
0,,211102,,478,40.69637,17.418128,Ostuni - C.da Galante - Direzione Ostuni,,,,
0,,223902,,479,40.656347,17.739653,SS16 S.Vito Br - Resort dei N.nni - Dir. S. Vito,,,,
0,,10201,,480,40.645053,17.937773,Brindisi - Via Napoli,,,,
0,,247202,,481,40.55232,17.719355,Latiano - S. P. 45 Latiano-Mesagne n°41 - Dir. Latiano,,,,
0,,201701,,482,40.733178,17.485226,SP17 - Cisternino  - Contrada Donna Pasqua - Dir. Ostuni,,,,
0,,243401,,483,40.531352,17.600358,Francavilla F.na - Via Abbadessa 87,,,,
0,,221201,,484,40.65449,17.703171,San Vito dei N.nni - Largo S. Antonio n°16,,,,
0,,120001,,485,40.5576433,17.8140333,Mesagne - Via Maia Materdona - Fermata 1^ - civ.50,,,,
0,,215001,,486,40.705546,17.342274,Martina Franca - Viale Europa - Capolinea,,,,
0,,210902,,487,40.696173,17.451444,Ostuni - C.da Grotte di Figazzano - Direzione Ostuni,,,,
0,,218201,,488,40.641376,17.578656,Ceglie M.ca - Cotrada Faddocchia - SS 581 - Dir. S. Michele,,,,
0,,240702,,489,40.623596,17.931463,Francavilla F.na - Pretura,,,,
0,,21701,,490,40.638001,17.517207,Ceglie M.ca - Via Emilio Notte - Capolinea,,,,
0,,208702,,491,40.717137,17.617019,SS16 Car Ost -  C.da Passaturo - Direzione Ostuni,,,,
0,,201801,,492,40.726404,17.501536,SP17 - Cisternino - Contrada Buongiorno - Dir. Ostuni,,,,
0,,264702,,493,40.468924,17.960203,Cellino S. Marco - Via Martiri F.Ardeatine di fronte al n°7,,,,
0,,217701,,494,40.650272,17.510484,Ceglie M.ca - Via Martina  - n°106 - Distr. Esso,,,,
0,,300201,,495,40.640485,17.925515,Brindisi - Via Prov. San Vito - Conad - Direzione Brindisi,,,,
0,,222702,,496,40.652429,17.710808,San Vito dei N.nni - Via Milo - Q8,,,,
0,,224001,,497,40.656195,17.740703,SS16 S.Vito Br - Km 899 - Villa Lidia - Dir. Br,,,,
0,,245102,,498,40.499798,17.638897,Oria - Via Francavilla  n°40,,,,
0,,266901,,499,40.432325,17.735729,Erchie - Via Stazione n°2,,,,
0,,209402,,500,40.708534,17.520811,Ostuni - C.da Fumarola - Direzione Ostuni,,,,
0,,204802,,501,40.731879,17.570052,Ostuni - SS 16 - N. 202 - Direzione Fasano,,,,
0,,201702,,502,40.733319,17.484731,SP17 - Cisternino - Contrada Donna Pasqua - Dir. Cisterni,,,,
0,,246301,,503,40.504565,17.649691,Oria - Via Latiano n°233b,,,,
0,,221501,,504,40.656658,17.712757,San Vito dei N.nni - Via Fra Giacomo,,,,
0,,103402,,505,40.623874,17.927554,Brindisi - Viale Togliatti - Tribunale,,,,
0,,240701,,506,40.53404,17.578418,Francavilla F.na - Via Villa Castelli - Pretura - N. 7,,,,
0,,273601,,507,40.513199,17.221204,Taranto - Portineria Tubificio,,,,
0,,246001,,508,40.499718,17.639095,Oria - Via F. Ciriaco n°49,,,,
0,,208401,,509,40.72297,17.599221,Ostuni - Telcom - Direzione Carovigno,,,,
0,,720101,,510,40.632226,17.6294,San Michele S.no - Via N.Sauro,,,,
0,,208402,,511,40.722998,17.599458,SS16 Car Ost - Telcom - Direzione Ostuni,,,,
0,,208301,,512,40.72425,17.59535,Ostuni - Villa Specchia - Direzione Carovigno,,,,
0,,118801,,513,40.5573,17.801798,Mesagne - Via Romagna- civ. 14,,,,
0,,219501,,514,40.633101,17.632586,San Michele S.no - Via della Repubblica n°5,,,,
0,,239202,,515,40.581373,17.475846,Villa Castelli - Chiesa Nuova n. 20,,,,
0,,245201,,516,40.498122,17.639733,Oria - Via  D'Oria,,,,
0,,220901,,517,40.637716,17.687614,SP48 -  S.Vito S.Mich - Mass Pigne - Direzione S. Vito,,,,
0,,262001,,518,40.49859,17.99156,San Pietro V.co - Piazza Madonna dei Fiori,,,,
0,,268901,,519,40.468151,17.722981,Torre S. Susanna - S. P. 82 - Torre-Oria - Dir. Oria,,,,
0,,217302,,520,40.645246,17.508861,Ceglie M.ca - Via Matteotti - Chiesa S. Lorenzo,,,,
0,,217602,,521,40.648001,17.512065,Ceglie M.ca - Via Petracca n°12,,,,
0,,274401,,522,40.647358,17.700706,SP48 - Cimitero S.Vito - Direzione S. Vito,,,,
0,,202702,,523,40.726848,17.554352,Ostuni - C.da Campanile - Direzione Cisternino,,,,
0,,119601,,524,40.561469,17.797582,Mesagne - Piazza Raffaello - Capolinea,,,,
0,,209601,,525,40.707742,17.513043,Ostuni - C.da Ciola - Direzione Martina,,,,
0,,202301,,526,40.7267,17.518808,SP17 C.da Badessa - Direzione Ostuni,,,,
0,,265201,,527,40.445534,17.917154,Sandonaci - Via S. Pancrazio n° 107 - Dir. Sandonaci,,,,
0,,203402,,528,40.835843,17.362512,Fasano - Via Garibaldi 78 - Dir. Fasano,,,,
0,,274101,,529,40.648861,17.855056,SS16 S.Vito Br -  Boschetto - Direzione Brindisi,,,,
0,,246901,,530,40.551562,17.717629,Latiano - Piazza Bartolo Longo  n°11 - Dir. Mesagne,,,,
0,,212302,,531,40.663398,17.599834,Ostuni - Masseria Boccadoro - Direzione Ostuni,,,,
0,,209902,,532,40.704729,17.362915,Ostuni - S.P. 14 - Incrocio Cisternino-Ceglie - Dir. Ostuni,,,,
0,,224201,,533,40.654016,17.774402,SS16 S.Vito Br - Rotonda per Serranova - Dir.Brindis,,,,
0,,260402,,534,40.484364,18.048129,Torchiarolo - Via Leopardi - Incrocio Via Caneva - Di Fronte,,,,
0,,246502,,535,40.550302,17.714113,Latiano - S. P. 71 - Santuario Cotrino - Dir. Oria,,,,
0,,206502,,536,40.726357,17.579347,Ostuni - Via Giovanni XXIII - Distr. Esso,,,,
0,,220302,,537,40.617688,17.636431,San Michele S.no - Ctd Agnisdei - Direzione S. Michele,,,,
0,,269501,,538,40.457259,17.736043,Torre S. Susanna - Via Prov per Erchie n°115,,,,
0,,222802,,539,40.658018,17.711383,San Vito dei N.nni - Via Brindisi n°130 - di fr. Giornalaio,,,,
0,,200101,,540,40.74132,17.429876,Cisternino - Via Domenico Cirillo 36,,,,
0,,27451,,541,40.506037,17.228255,Taranto - Vestas,,,,
0,,266903,,542,40.429383,17.738482,Erchie - Via Paisiello (campo sportivo),,,,
0,,103102,,543,40.62561,17.92842,Brindisi - Viale S.G.Bosco - di fr. Sc.Marco Pacuvio,,,,
0,,216102,,544,40.701111,17.663055,Carovigno - Via San Vito - Dist. Agip - Dir. Carovigno,,,,
0,,245701,,545,40.500983,17.635397,Oria - Via Frascata,,,,
0,,300202,,546,40.640485,17.925515,Brindisi - Via Prov. San Vito - Conad - Direzione S. Vito,,,,
0,,242001,,547,40.52828,17.578239,Francavilla F.na - Via S. Francesco n°305,,,,
0,,224501,,548,40.651943,17.818056,SS16 S.Vito Br - Casa Cantoniera - Dir. Brindisi,,,,
0,,245801,,549,40.496917,17.645127,Oria - Piazza Lorch - Villetta,,,,
0,,246701,,550,40.556853,17.715188,Latiano - Via D'Ippolito - Di fr. 163,,,,
0,,11091,,551,40.644592,17.926943,Brindisi - Via N. Brandi - Istituto Geometri,,,,
0,,266801,,552,40.42677,17.737575,Erchie - Via Stazione n°64 dir S. Pancrazio,,,,
0,,209802,,553,40.705629,17.50549,Ostuni - C.da Cervarolo - Fermata 2 - Direzione Ostuni,,,,
0,,225101,,554,40.654363,17.769312,SS16 S.Vito Br - Rist.Otium - Dir. Brindisi,,,,
0,,266505,,555,40.54825,17.721614,Latiano - Via della Repubblica n°25,,,,
0,,239501,,556,40.558332,17.500936,Villa Castelli - C.da Tagliavanti - Direzione Francavilla,,,,
0,,211901,,557,40.695886,17.587187,Ostuni - C.da Picoco - Direzione S. Michele,,,,
0,,125401,,558,40.552872,17.813635,Mesagne - Via San Donaci1,,,,
0,,11092,,559,40.644496,17.92518,Brindisi - Via N. Brandi - di fronte Istituto Geometri,,,,
0,,267801,,560,40.460883,17.736174,Torre S. Susanna - Via Prov. per Erchie n°63 - dir Torre,,,,
0,,267201,,561,40.436067,17.734592,Erchie - Via Roma - di fr. P.za Umberto - Dir. Torre,,,,
0,,215802,,562,40.71389,17.660833,Carovigno - Via Foggia - Fermata 1^ - n. 65 - Dir.  Carov.,,,1,
0,,204301,,563,40.776057,17.478262,Montalbano - Via Calatafimi n°147,,,,
0,,247102,,564,40.553066,17.724452,Latiano - Via della Libertà n°91 - Dir. Francavilla-Oria,,,,
0,,265102,,565,40.448829,17.925105,Sandonaci - Via Cellino2,,,,
0,,274301,,566,40.646243,17.89632,SS16 S.Vito Br -  Villa Gigante - Direzione Brindisi,,,,
0,,245301,,567,40.496301,17.641332,Oria - Via D. Bonifacio n°83,,,,
0,,720001,,568,40.633521,17.632068,San Michele S.no - Via Getsemani,,,,
0,,118202,,569,40.551704,17.814561,Mesagne - Via Antonucci - di fronte Scuole El.Falcone,,,,
0,,209602,,570,40.707644,17.51319,Ostuni - C.da Ciola - Direzione Ostuni,,,,
0,,202001,,571,40.737517,17.473745,Casalini - Via Brindisi n°140 - Direzione Brindisi,,,,
0,,300301,,572,40.627158,17.924193,Brindisi - Piazza Sapri,,,,
0,,26222,,573,40.494556,17.990856,San Pietro V.co - Circonv. ang. via De Gasperi dir. Brindisi,,,,
0,,120101,,574,40.557685,17.81711,Mesagne - Via Maia Materdona - Fermata 2^ - civ.132,,,,
0,,70601,,575,40.57984,17.839045,Mesagne - Centro Comm. Auchan Lato BR,,,,
0,,201002,,576,40.762634,17.422831,Cisternino - S. P. 9 - incrocio Caranna - dir. Cisternino,,,,
0,,119002,,577,40.5597,17.797835,Mesagne - Via Marconi-civ. 179,,,,
0,,264502,,578,40.475518,17.962172,Cellino S. Marco - Via Bari n°20,,,,
0,,224101,,579,40.654811,17.762488,SS16 S.Vito Br - Chiesa S. Antonio - Dir. Brind,,,,
0,,264001,,580,40.473036,17.960017,Cellino S. Marco - Via Mascagni - dir Tut./S. Pietro,,,,
0,,265701,,581,40.42213,17.840855,San Pancrazio S.no - Via Mesagne n°122 - Dir. Mesagne,,,,
0,,210801,,582,40.695225,17.462297,Ostuni - Ponte Ferroviario - Direzione Martina,,,,
0,,246801,,583,40.54992,17.713064,Latiano - Via Francavilla n°93 - dir. Mesagne,,,,
0,,267001,,584,40.443337,17.735364,Erchie - Via Pr. Erchie/Torre n°41,,,,
0,,115501,,585,40.62882,17.97373,Brindisi - Via Newton - PI.VI.COM.,,,,
0,,215902,,586,40.711666,17.659445,Carovigno - Via Foggia - Fermata 2^ -  Bar Jolly - Dir. Car.,,,1,
0,,215901,,587,40.713055,17.66,Carovigno - Via Foggia - Fermata 2^ - Di Fr. BarJolly-D.SSab,,,,
0,,217301,,588,40.645169,17.509227,Ceglie M.ca - Via Matteotti - Chiesa S. Lorenzo n°3,,,,
0,,243102,,589,40.531306,17.596259,Francavilla F.na - Via Abbadessa 1A - Dir. FF,,,,
0,,206702,,590,40.725555,17.582221,Ostuni - Via Fogazzaro - di fronte civico n. 26,,,,
0,,220101,,591,40.626082,17.633757,San Michele S.no - Via Duca d'Aosta  - n°114,,,,
0,,11102,,592,40.644338,17.923966,Brindisi - Via N. Brandi - di fronte Liceo Scientifico,,,,
0,,267702,,593,40.447494,17.735512,Erchie - Via Pr. Erchie/Torre n. 111 dir. Erchie,,,,
0,,212301,,594,40.663325,17.599764,Ostuni - Masseria Boccadoro - Direzione S. Michele,,,,
0,,212402,,595,40.658532,17.601203,Ostuni - C.da Musone - Direzione Ostuni,,,,
0,,211501,,596,40.705687,17.365831,Ostuni - S.P. 14 - Incrocio Cisternino - Direzione Martina,,,,
0,,115301,,597,40.63247,17.97796,Brindisi - Via Macaluso - Direzione Z.I.,,,,
0,,217101,,598,40.640553,17.5128,Ceglie M.ca - Viale A. Moro - Di Fronte n. 110,,,,
0,,209401,,599,40.708534,17.520811,Ostuni - C.da Fumarola - Direzione Martina,,,,
0,,261701,,600,40.488033,17.994303,San Pietro V.co - Via Mesagne n° 22,,,,
0,,267101,,601,40.432279,17.735931,Erchie - Via Prov. Erchie Stazione n.5 dir Torre,,,,
0,,204002,,602,40.811867,17.41493,Pezze di Greco - Corso Nazionale - Di fronte al n°255,,,,
0,,205567,,603,40.725555,17.582221,Ostuni - Via Fogazzaro - N. 26,,,,
0,,103202,,604,40.626946,17.927428,Brindisi - Viale S. G. Bosco - di fr. Telecom,,,,
0,,247002,,605,40.551142,17.725404,Latiano - Via Montanaro Di Fr. 80 - Dir. Francavilla-Oria,,,,
0,,103701,,606,40.625576,17.918698,Brindisi - Via Appia - Focolare - Ospedale,,,,
0,,212801,,607,40.7275,17.570833,Ostuni - Viale A. Moro - Capolinea,,,,
0,,726001,,608,40.559232,17.792092,Mesagne - Via Marconi ang. Via Gramsci,,,,
0,,267701,,609,40.447494,17.735512,Erchie - Via Pr. Erchie/Torre di fr. n°111 dir. Torre,,,,
0,,267901,,610,40.462938,17.73674,Torre S. Susanna - Via Galliano n. 29,,,,
0,,122002,,611,40.638747,17.927231,Brindisi - Via Prov. San Vito - Vigili Urbani,,,,
0,,217202,,612,40.643391,17.513813,Ceglie M.ca - Via Crispi n°65 - Villa Centopini,,,,
0,,268902,,613,40.468151,17.722981,Torre S. Susanna - S. P. 82 - Torre-Oria - Dir. Torre,,,,
0,,265001,,614,40.45013,17.927359,Sandonaci - Via Cellino n°96,,,,
0,,200501,,615,40.745535,17.42396,Cisternino - Via Fasano 120,,,,
0,,219601,,616,40.630406,17.631877,San Michele S.no - Piazza Marconi n. 10,,,,
0,,201802,,617,40.726404,17.501536,SP17 - Cisternino - Contrada Buongiorno - Dir. Cisternino,,,,
0,,114002,,618,40.632069,17.951717,Brindisi - Viale Arno-Difronte al civico 32,,,,
0,,267501,,619,40.439414,17.735064,Erchie - Via Principe di Napoli n°38,,,,
0,,215302,,620,40.702499,17.661388,Carovigno - Corso Umberto - Standa simply - Dir. Ostuni,,,,
0,,210501,,621,40.696243,17.482843,Ostuni - SP14 - Incrocio Villaggio degli Ulivi - Dir.Martina,,,,
0,,246503,,622,40.548625,17.713962,Latiano - Via Berlinguer (angolo Via Albanese),,,,
0,,216001,,623,40.736946,17.683889,Carovigno - Stazione FF.SS.,,,1,
0,,203302,,624,40.833174,17.367102,Fasano - Via Roma - Comando Polizia - Dir. Pezze,,,,
0,,209202,,625,40.715569,17.5609,Ostuni - C.da Assorbola - Direzione Ostuni,,,,
0,,274402,,626,40.647685,17.700806,San Vito dei N.nni - Cimitero - Direzione S. Michele,,,,
0,,260301,,627,40.482296,18.050314,Torchiarolo - Via Leopardi - Inc. Via Kennedy ,,,,
0,,208601,,628,40.72416,17.595684,Ostuni - C.da S. Caterina - Direzione Carovigno,,,,
0,,205802,,629,40.721668,17.576389,Ostuni - Via D. Cerignola - N.9,,,,
0,,204502,,630,40.780821,17.483855,Montalbano - Casa Cantoniera - Dir. Fasano,,,,
0,,201301,,631,40.772093,17.446208,Cisternino - S. P. 9 - Contrada Monte Pizzuto - dir. SS16,,,,
0,,215501,,632,40.708332,17.662777,Carovigno - Via S. Sabina di fr. civ. 171,,,1,
0,,103601,,633,40.627337,17.922081,Brindisi - Via Appia - Istituto Alberghiero,,,,
0,,220802,,634,40.629435,17.670397,San Vito dei N.nni - Masseria Cardellicchio - Dir. S. Michel,,,,
0,,11072,,635,40.631205,17.945842,Brindisi - Via Prov. per Lecce - di fr al civico 19 (AGIP),,,,
0,,115201,,636,40.63166,17.97526,Brindisi - Via Macaluso - Direzione Z.I.,,,,
0,,260602,,637,40.487897,18.00451,San Pietro V.co - Via Torchiarolo - dir San Pietro,,,,
0,,245101,,638,40.499787,17.638696,Oria - Via Francavilla n°53,,,,
0,,203101,,639,40.830927,17.363109,Fasano - Via Virgilio 45,,,,
0,,208701,,640,40.716483,17.618625,Ostuni - C.da Passaturo - Direzione Carovigno,,,,
0,,140301,,641,40.562422,17.810637,Mesagne - Via Brindisi 57 (M) dir. Mesagne,,,,
0,,240401,,642,40.539762,17.578731,Francavilla F.na - Ospedale Civile,,,,
0,,103201,,643,40.627121,17.927595,Brindisi - Viale S.G.Bosco - Telecom,,,,
0,,300601,,644,40.63021,17.975,Brindisi - Avioman,,,,
0,,211001,,645,40.695769,17.445271,Ostuni - C.da Geremia - Direzione Martina,,,,
0,,239301,,646,40.572288,17.479205,Villa Castelli - Via Prov. Francavilla -SP50,,,,
0,,114301,,647,40.629328,17.95987,Brindisi - Viale E.Fermi - Villaggio - Direzione Z.I.,,,,
0,,220102,,648,40.626061,17.633893,San Michele S.no - Via Duca d'Aosta - n°163,,,,
0,,273401,,649,40.523222,17.196897,Taranto - Portineria D,,,,
0,,201601,,650,40.74134,17.434397,SP17 - Via Ostuni - Cimitero Dir. Ostuni,,,,
0,,114801,,651,40.63822,17.97695,Brindisi - Viale E.Fermi - Off. Ciracì,,,,
0,,210201,,652,40.717008,17.471657,Ostuni - C.da Cavallerizza - Chiesa - Direzione Cister.,,,,
0,,220601,,653,40.61027,17.656767,San Michele S.no - Masseria Grattile - Direzione Francavilla,,,,
0,,218601,,654,40.645264,17.630208,SP581 -   S.Mich Cegl- Ristor. l'Ulivo-Mob.Tetesi - Dir.SMi,,,,
0,,245103,,655,40.503281,17.640439,Oria - Via Erodoto di Alicarnasso n°1,,,,
0,,206302,,656,40.726943,17.57728,Ostuni - Piazza Italia - Pessina,,,,
0,,243501,,657,40.531502,17.594804,Francavilla F.na - Via Abbedessa - Chiesa,,,,
0,,241901,,658,40.528278,17.578634,Francavilla F.na - Via S. Francesco n°152,,,,
0,,239302,,659,40.576796,17.475254,Villa Castelli - Via Prov. Francavilla - N. 7,,,,
0,,203201,,660,40.832718,17.36263,Fasano - Via dell'Artigianato 1,,,,
0,,101801,,661,40.625782,17.93069,Brindisi - Viale Togliatti n. 5 - Direzione Centro,,,,
0,,224202,,662,40.654088,17.774948,SS16 S.Vito Br - Rotatoria  per Serranova - Dir. SVito,,,,
0,,220902,,663,40.631324,17.678699,San Vito dei N.nni - Masseria Pigne - Direzione S. Michele,,,,
0,,216302,,664,40.67889,17.685556,SS16 S.Vito Car -  Carbrun - Direzione Carovigno,,,1,
0,,268201,,665,40.465436,17.741858,Torre S. Susanna - Via Galaso n. 76,,,,
0,,212602,,666,40.654554,17.604336,Ostuni - C.da Casamassima - Direzione Ostuni,,,,
0,,127001,,667,40.62469,17.99002,Brindisi - Polymer,,,,
0,,203601,,668,40.842862,17.375832,Fasano - S. P. 4 - Villa Schiavone - Dir. Savelletri,,,,
0,,261501,,669,40.486186,17.99647,San Pietro V.co - Piazza Regina Margherita - n° 34,,,,
0,,203801,,670,40.815323,17.407382,Pezze di Greco - Corso Nazionale - Di fronte al n°10,,,,
0,,261802,,671,40.490732,17.989597,San Pietro V.co - Via Mesagne n°163,,,,
0,,268701,,672,40.449836,17.926728,Sandonaci - Via Cellino n°129,,,,
0,,208802,,673,40.714291,17.625193,SS16 Car Ost -  C.da Polinisse - Direzione Ostuni,,,,
0,,268001,,674,40.463766,17.740752,Torre S. Susanna - Largo Colonna n. 10,,,,
0,,265204,,675,40.444768,17.921085,Sandonaci - Via  Foscolo incrocio Cimitero dir.S.Pancr.,,,,
0,,222101,,676,40.659842,17.704845,San Vito dei N.nni - Via Carovigno n. 52 - Dir. S. Vito,,,,
0,,256507,,677,40.54935,17.731118,Latiano - Via A.Moro-zona 167,,,,
0,,101802,,678,40.625496,17.929891,Brindisi - Viale Togliatti ang. V.Cattaneo dir. S.Elia,,,,
0,,219101,,679,40.628687,17.634425,San Michele S.no - Via Pisacane n°14,,,,
0,,200901,,680,40.757583,17.423921,Cisternino - S. P. 9 - Concessionaria Fiat - Dir. Caranna,,,,
0,,209001,,681,40.716461,17.618748,Ostuni - Villa Lucia - Direzione Carovigno,,,,
0,,218501,,682,40.646488,17.617641,SP581 - Contrada Palagogna - Direzione S. Michele,,,,
0,,273301,,683,40.500371,17.20143,Taranto - Portineria A,,,,
0,,247001,,684,40.551142,17.725404,Latiano - Via Montanaro 80 - Dir. Mesagne,,,,
0,,209301,,685,40.716016,17.561715,Ostuni - C.da S. Lucia - Direzione Martina,,,,
0,,217306,,686,40.642475,17.514862,Ceglie M.ca - Largo Don Minzoni,,,,
0,,220002,,687,40.630707,17.66413,SP581 - Ctd AjenI - Direzione S. Michele,,,,
0,,204602,,688,40.773524,17.499785,Montalbano - Contrada Fontevecchia - Direzione Fasano,,,,
0,,222401,,689,40.658316,17.701969,San Vito dei N.nni - Via Annunziata n°135,,,,
0,,242302,,690,40.529121,17.606107,Francavilla F.na - Via Latiano - Direzione Francavilla,,,,
0,,219901,,691,40.629731,17.660398,San Michele S.no - Ctd Cuengo - Direzione S. Vito,,,,
0,,126802,,692,40.63884,17.9548,Brindisi - Punto Franco - Montubi,,,,
0,,265502,,693,40.418338,17.838255,San Pancrazio S.no - Corso Umberto I  n° 180 - Dir. Sandon.,,,,
